{
    "positions": [
        {
            "title": "서울 마포구 동교로 194 혜원빌딩 1층",
            "lng": 126.922878,
            "lat": 37.557384
        },
        {
            "title": "서울 마포구 독막로2길 22 3층",
            "lng": 126.914441,
            "lat": 37.547612
        },
        {
            "title": "서울 마포구 와우산로15길 50 2층",
            "lng": 126.920864,
            "lat": 37.548752
        },
        {
            "title": "서울 종로구 자하문로15길 26-4",
            "lng": 126.969504,
            "lat": 37.580786
        },
        {
            "title": "서울 강남구 논현로155길 26 3층",
            "lng": 127.025943,
            "lat": 37.521616
        },
        {
            "title": "서울 종로구 혜화로3길 5 아남아파트 상가 301동 108호",
            "lng": 127.000253,
            "lat": 37.585871
        },
        {
            "title": "서울 종로구 낙산길 19",
            "lng": 127.0056,
            "lat": 37.580555
        },
        {
            "title": "서울 마포구 동교로23길 4",
            "lng": 126.92116,
            "lat": 37.556485
        },
        {
            "title": "서울 관악구 양녕로 19 2층",
            "lng": 126.946458,
            "lat": 37.483865
        },
        {
            "title": "서울 종로구 북촌로4길 6",
            "lng": 126.985525,
            "lat": 37.57905
        },
        {
            "title": "서울 중구 을지로 121-1 2층",
            "lng": 126.991388,
            "lat": 37.566513
        },
        {
            "title": "서울 강서구 양천로24길 113",
            "lng": 126.815378,
            "lat": 37.568212
        },
        {
            "title": "서울 용산구 이태원로42길 34 지하 1층",
            "lng": 127.000488,
            "lat": 37.536108
        },
        {
            "title": "서울 관악구 중앙길27",
            "lng": 126.95298,
            "lat": 37.484022
        },
        {
            "title": "서울 동작구 성대로 40, 1층",
            "lng": 126.933297,
            "lat": 37.498947
        },
        {
            "title": "서울 종로구 자하문로10길 22 2층",
            "lng": 126.972682,
            "lat": 37.579327
        },
        {
            "title": "서울 중구 덕수궁길 61 서울시립미술관 3층",
            "lng": 126.973706,
            "lat": 37.564117
        },
        {
            "title": "서울 도봉구 노해로 395 한국타이어빌딩 2층 201호",
            "lng": 127.05186,
            "lat": 37.652892
        },
        {
            "title": "서울 강남구 논현로26길 43",
            "lng": 127.045495,
            "lat": 37.483968
        },
        {
            "title": "서울 마포구 양화로6길 57-6",
            "lng": 126.917705,
            "lat": 37.548867
        },
        {
            "title": "서울 마포구 성미산로29길 4 1층",
            "lng": 126.922958,
            "lat": 37.564413
        },
        {
            "title": "서울 용산구 우사단로10길 95",
            "lng": 127.000713,
            "lat": 37.531974
        },
        {
            "title": "서울 마포구 어울마당로2길 10 1층",
            "lng": 126.919769,
            "lat": 37.546183
        },
        {
            "title": "서울 용산구 신흥로16길 7",
            "lng": 126.986994,
            "lat": 37.544932
        },
        {
            "title": "서울 종로구 효자로 33",
            "lng": 126.973626,
            "lat": 37.579065
        },
        {
            "title": "서울 마포구 연남로11길 34",
            "lng": 126.917092,
            "lat": 37.565414
        },
        {
            "title": "서울 강남구 학동로 3길, 19",
            "lng": 127.022065,
            "lat": 37.51279
        },
        {
            "title": "서울 마포구 동교로46길 33 1층",
            "lng": 126.9266,
            "lat": 37.562293
        },
        {
            "title": "서울 마포구 성미산로31길 13 2층",
            "lng": 126.925536,
            "lat": 37.564635
        },
        {
            "title": "서울 관악구 남부순환로231길 11 태주빌라 1층",
            "lng": 126.956988,
            "lat": 37.480408
        },
        {
            "title": "서울 광진구 능동로19길 5 지하 1층",
            "lng": 127.073495,
            "lat": 37.546886
        },
        {
            "title": "서울 강동구 동남로65길 15-5",
            "lng": 127.155013,
            "lat": 37.547488
        },
        {
            "title": "서울 용산구 신흥로 115-1",
            "lng": 126.983138,
            "lat": 37.544754
        },
        {
            "title": "서울 마포구 상수동 325-5",
            "lng": 126.921924,
            "lat": 37.54741
        },
        {
            "title": "서울 동대문구 서울시립대로 29길 29, 1층",
            "lng": 127.054748,
            "lat": 37.584968
        },
        {
            "title": "서울 강서구 강서로45다길 30-27 초록아파트상가 102호",
            "lng": 126.833604,
            "lat": 37.545597
        },
        {
            "title": "서울 마포구 성미산로6길 21 1층",
            "lng": 126.911251,
            "lat": 37.557611
        },
        {
            "title": "서울 성북구 성북로 28 우암빌딩 4층 스튜디오얄라",
            "lng": 127.004324,
            "lat": 37.590509
        },
        {
            "title": "서울 마포구 월드컵로19길 74",
            "lng": 126.906942,
            "lat": 37.554336
        },
        {
            "title": "서울 관악구 행운1길 70 1호",
            "lng": 126.956551,
            "lat": 37.481738
        },
        {
            "title": "서울 관악구 봉천로 401-1 2층",
            "lng": 126.94467,
            "lat": 37.483209
        },
        {
            "title": "서울 강남구 광평로51길 22 한아름상가 205호",
            "lng": 127.103606,
            "lat": 37.489352
        },
        {
            "title": "서울 동대문구 답십리로63길 30",
            "lng": 127.068609,
            "lat": 37.573869
        },
        {
            "title": "서울 은평구 갈현로45길 40-1 1층",
            "lng": 126.915261,
            "lat": 37.628397
        },
        {
            "title": "서울 종로구 경교장길 8 중앙대학교 평동캠퍼스 505호",
            "lng": 126.965943,
            "lat": 37.567248
        },
        {
            "title": "서울 금천구 독산로 188 1층",
            "lng": 126.903513,
            "lat": 37.463858
        },
        {
            "title": "서울 서대문구 연희로11라길 10-6 2층",
            "lng": 126.930315,
            "lat": 37.568399
        },
        {
            "title": "서울 종로구 효자로7길 5 1층",
            "lng": 126.973458,
            "lat": 37.578883
        },
        {
            "title": "서울 마포구 서강로11길 18 1층",
            "lng": 126.932664,
            "lat": 37.553725
        },
        {
            "title": "서울 구로구 구로중앙로27가길 32 1층",
            "lng": 126.886486,
            "lat": 37.497614
        },
        {
            "title": "서울 광진구 아차산로 200 커먼그라운드 3층",
            "lng": 127.065508,
            "lat": 37.5412
        },
        {
            "title": "서울 노원구 화랑로 464",
            "lng": 127.078894,
            "lat": 37.618479
        },
        {
            "title": "서울 동작구 동작대로3길 41 1층",
            "lng": 126.979206,
            "lat": 37.478683
        },
        {
            "title": "서울 서대문구 연희맛로 24",
            "lng": 126.93036,
            "lat": 37.566868
        },
        {
            "title": "서울 광진구 동일로 34길 24",
            "lng": 127.069849,
            "lat": 37.549731
        },
        {
            "title": "서울 중구 청파로 437-1 302호",
            "lng": 126.969016,
            "lat": 37.558688
        },
        {
            "title": "서울 은평구 진흥로 101 3층",
            "lng": 126.92236,
            "lat": 37.605918
        },
        {
            "title": "서울 마포구 와우산로35길 3 지하 1층",
            "lng": 126.930218,
            "lat": 37.555442
        },
        {
            "title": "서울 종로구 대학로14길 12-1",
            "lng": 127.002714,
            "lat": 37.583855
        },
        {
            "title": "서울 노원구 동일로 182길 63-1",
            "lng": 127.077539,
            "lat": 37.623596
        },
        {
            "title": "서울 마포구 숭문16나길 9",
            "lng": 126.948235,
            "lat": 37.555504
        },
        {
            "title": "서울 용산구 두텁바위로 94-1",
            "lng": 126.982094,
            "lat": 37.547421
        },
        {
            "title": "서울 마포구 숭문길 206 1층",
            "lng": 126.946638,
            "lat": 37.555571
        },
        {
            "title": "서울 강남구 압구정로2길 60 2층",
            "lng": 127.021318,
            "lat": 37.517956
        },
        {
            "title": "서울 강남구 압구정로46길 50 퀸마마마켓 3층",
            "lng": 127.035669,
            "lat": 37.525327
        },
        {
            "title": "서울 용산구 이태원로 240 3층",
            "lng": 127.00016,
            "lat": 37.536124
        },
        {
            "title": "서울 마포구 독막로 320 태영데시앙루브 B 105호",
            "lng": 126.947879,
            "lat": 37.542968
        },
        {
            "title": "서울 영등포구 양평로22라길 1 104동 1층",
            "lng": 126.89435,
            "lat": 37.53946
        },
        {
            "title": "서울 성동구 무수막길 56 1층",
            "lng": 127.021936,
            "lat": 37.551227
        },
        {
            "title": "서울 강동구 천호대로 168가길 60",
            "lng": 127.129097,
            "lat": 37.535874
        },
        {
            "title": "서울 마포구 동교로46길 33",
            "lng": 126.9266,
            "lat": 37.562293
        }
    ]
}